$GPRMC,050759.130,V,3603.0309,N,14007.1527,E,0.06,0.00,030610,,,N*77
$GPRMC,050800.130,V,3603.0327,N,14007.1522,E,0.05,0.00,030610,,,N*7E
$GPRMC,050801.130,V,3603.0334,N,14007.1520,E,0.09,0.00,030610,,,N*73
$GPRMC,050802.130,V,3602.9986,N,14007.1170,E,0.04,0.00,030610,,,N*77
$GPRMC,050803.130,V,3602.9986,N,14007.1170,E,0.03,0.00,030610,,,N*71
$PSEN,Batt,V,3.72
$PSEN,CO2,ppm, 0494
$GPRMC,050804.130,V,3602.9986,N,14007.1170,E,0.02,0.00,030610,,,N*77
$GPRMC,050805.130,V,3602.9986,N,14007.1170,E,0.02,0.00,030610,,,N*76
$GPRMC,050806.130,V,3602.9986,N,14007.1170,E,0.01,0.00,030610,,,N*76
$GPRMC,050807.130,V,3602.9986,N,14007.1170,E,0.01,0.00,030610,,,N*77
$GPRMC,050808.130,V,3602.9986,N,14007.1170,E,0.00,0.00,030610,,,N*79
$PSEN,Batt,V,3.74
$PSEN,CO2,ppm, 0477
$GPRMC,050809.130,V,3603.0273,N,14007.1472,E,0.00,0.00,030610,,,N*76
$GPRMC,050810.130,V,3603.0307,N,14007.1526,E,0.00,0.00,030610,,,N*7C
$GPRMC,050811.130,V,3603.0308,N,14007.1527,E,0.00,0.00,030610,,,N*73
$GPRMC,050812.130,V,3602.9985,N,14007.1174,E,0.00,0.00,030610,,,N*75
$GPRMC,050813.130,V,3602.9092,N,14007.2439,E,0.00,0.00,030610,,,N*74
$PSEN,Batt,V,3.75
$PSEN,CO2,ppm, 0461
$GPRMC,050814.130,V,3602.9071,N,14007.2439,E,0.00,0.00,030610,,,N*7E
$GPRMC,050815.130,V,3602.9115,N,14007.2429,E,0.00,0.00,030610,,,N*7D
$GPRMC,050816.130,V,3602.9131,N,14007.2400,E,0.01,0.00,030610,,,N*72
$GPRMC,050816.899,V,3602.9561,N,14007.1869,E,0.01,0.00,030610,,,N*79
$PSEN,Batt,V,3.73
$GPRMC,050818.000,V,3602.9201,N,14007.2253,E,0.00,0.00,030610,,,N*7F
$PSEN,CO2,ppm, 0457
$GPRMC,050819.000,V,3602.9122,N,14007.2370,E,0.00,0.00,030610,,,N*7C
$GPRMC,050820.000,V,3602.9076,N,14007.2427,E,0.00,0.00,030610,,,N*73
$GPRMC,050821.000,V,3602.9051,N,14007.2453,E,0.00,0.00,030610,,,N*74
$GPRMC,050822.000,V,3602.9047,N,14007.2455,E,0.00,0.00,030610,,,N*76
$PSEN,Batt,V,3.75
$PSEN,CO2,ppm, 0455
$GPRMC,050823.000,V,3602.9070,N,14007.2434,E,0.00,0.00,030610,,,N*74
$GPRMC,050824.000,V,3602.9141,N,14007.2365,E,0.00,0.00,030610,,,N*73
$GPRMC,050825.000,V,3602.9168,N,14007.2339,E,0.00,0.00,030610,,,N*70
$GPRMC,050826.000,V,3602.9197,N,14007.2311,E,0.00,0.00,030610,,,N*79
$GPRMC,050827.000,V,3602.9262,N,14007.2243,E,0.00,0.00,030610,,,N*77
$PSEN,Batt,V,3.75
$PSEN,CO2,ppm, 0434
$GPRMC,050828.000,V,3602.9303,N,14007.2199,E,0.00,0.00,030610,,,N*7A
$GPRMC,050829.000,V,3602.9304,N,14007.2199,E,0.00,0.00,030610,,,N*7C
$GPRMC,050830.000,V,3602.9281,N,14007.2224,E,0.00,0.00,030610,,,N*7D
$GPRMC,050831.000,V,3602.9250,N,14007.2257,E,0.00,0.00,030610,,,N*74
$GPRMC,050832.000,V,3602.9279,N,14007.2224,E,0.00,0.00,030610,,,N*78
$PSEN,Batt,V,3.73
$PSEN,CO2,ppm, 0438
$GPRMC,050833.000,V,3602.9290,N,14007.2207,E,0.00,0.00,030610,,,N*7F
$GPRMC,050834.000,V,3602.9277,N,14007.2220,E,0.00,0.00,030610,,,N*74
$GPRMC,050835.000,V,3602.9177,N,14007.2334,E,0.08,0.00,030610,,,N*7A
$GPRMC,050836.000,V,3602.9156,N,14007.2359,E,0.03,0.00,030610,,,N*7A
$GPRMC,050837.000,V,3602.9105,N,14007.2419,E,0.03,0.00,030610,,,N*7E
$PSEN,Batt,V,3.75
$PSEN,CO2,ppm, 0440
$GPRMC,050838.000,V,3602.9061,N,14007.2467,E,0.03,0.00,030610,,,N*7B
$GPRMC,050839.000,V,3602.9080,N,14007.2446,E,0.04,0.00,030610,,,N*71
$GPRMC,050840.000,V,3602.9093,N,14007.2431,E,0.04,0.00,030610,,,N*7D
$GPRMC,050841.000,V,3602.9040,N,14007.2488,E,0.07,0.00,030610,,,N*73
$GPRMC,050842.000,V,3602.9002,N,14007.2527,E,0.07,0.00,030610,,,N*72
$PSEN,Batt,V,3.71
$PSEN,CO2,ppm, 0434
$GPRMC,050843.000,V,3602.9358,N,14007.2096,E,1.28,0.00,030610,,,N*7C
$GPRMC,050844.000,V,3602.9483,N,14007.1950,E,3.53,131.68,030610,,,N*79
$GPRMC,050845.000,V,3602.9389,N,14007.2059,E,4.48,131.89,030610,,,N*74
$GPRMC,050846.000,V,3602.9295,N,14007.2169,E,3.61,128.70,030610,,,N*7B
$GPRMC,050847.000,V,3602.9274,N,14007.2191,E,3.22,132.02,030610,,,N*7B
$PSEN,Batt,V,3.74
$PSEN,CO2,ppm, 0433
$GPRMC,050848.000,A,3602.9257,N,14007.2215,E,1.93,132.02,030610,,,A*6A
$GPRMC,050849.000,A,3602.9251,N,14007.2225,E,1.93,132.02,030610,,,A*6E
$GPRMC,050850.000,A,3602.9242,N,14007.2240,E,2.08,117.30,030610,,,A*60
$GPRMC,050851.000,A,3602.9241,N,14007.2240,E,2.01,133.10,030610,,,A*6F
$PSEN,Batt,V,3.74
$GPRMC,050852.000,A,3602.9244,N,14007.2235,E,1.69,133.10,030610,,,A*66
$PSEN,CO2,ppm, 0435
$GPRMC,050853.000,A,3602.9248,N,14007.2232,E,1.70,128.90,030610,,,A*66
$GPRMC,050854.000,A,3602.9269,N,14007.2209,E,2.52,140.94,030610,,,A*63
$GPRMC,050855.000,A,3602.9291,N,14007.2186,E,2.51,135.24,030610,,,A*6B
$GPRMC,050856.000,A,3602.9306,N,14007.2173,E,2.53,144.54,030610,,,A*6E
$PSEN,Batt,V,3.72
$PSEN,CO2,ppm, 0433
$GPRMC,050857.000,A,3602.9309,N,14007.2174,E,2.66,136.40,030610,,,A*61
$GPRMC,050858.000,A,3602.9303,N,14007.2183,E,1.98,133.11,030610,,,A*6F
$GPRMC,050859.000,A,3602.9305,N,14007.2183,E,1.85,133.11,030610,,,A*64
$GPRMC,050900.000,A,3602.9308,N,14007.2179,E,1.84,133.11,030610,,,A*60
$GPRMC,050901.000,A,3602.9307,N,14007.2180,E,1.84,133.11,030610,,,A*68
$PSEN,Batt,V,3.75
$PSEN,CO2,ppm, 0432
$GPRMC,050902.000,A,3602.9305,N,14007.2181,E,1.84,133.11,030610,,,A*68
$GPRMC,050903.000,A,3602.9296,N,14007.2193,E,1.84,133.11,030610,,,A*61
$GPRMC,050904.000,A,3602.9286,N,14007.2204,E,1.84,133.11,030610,,,A*6A
$GPRMC,050905.000,A,3602.9281,N,14007.2214,E,1.85,145.77,030610,,,A*6D
$GPRMC,050906.000,A,3602.9284,N,14007.2211,E,1.41,145.77,030610,,,A*66
$PSEN,Batt,V,3.74
$PSEN,CO2,ppm, 0433
$GPRMC,050907.000,A,3602.9282,N,14007.2213,E,1.40,145.77,030610,,,A*62
$GPRMC,050908.000,A,3602.9284,N,14007.2205,E,1.40,145.77,030610,,,A*6C
$GPRMC,050909.000,A,3602.9290,N,14007.2195,E,1.41,145.77,030610,,,A*63
$GPRMC,050910.000,A,3602.9293,N,14007.2196,E,1.41,131.73,030610,,,A*6C
$GPRMC,050911.000,A,3602.9300,N,14007.2190,E,2.65,133.34,030610,,,A*64
$PSEN,Batt,V,3.72
$PSEN,CO2,ppm, 0437
$GPRMC,050912.000,A,3602.9313,N,14007.2178,E,2.83,138.25,030610,,,A*60
$GPRMC,050913.000,A,3602.9318,N,14007.2175,E,2.85,133.06,030610,,,A*6B
$GPRMC,050914.000,A,3602.9326,N,14007.2164,E,2.62,136.79,030610,,,A*65
$GPRMC,050915.000,A,3602.9337,N,14007.2152,E,2.50,139.31,030610,,,A*63
$GPRMC,050916.000,A,3602.9342,N,14007.2148,E,2.24,140.22,030610,,,A*66
$PSEN,Batt,V,3.74
$PSEN,CO2,ppm, 0435
$GPRMC,050917.000,A,3602.9338,N,14007.2160,E,2.63,125.53,030610,,,A*66
$GPRMC,050918.000,A,3602.9336,N,14007.2167,E,2.60,122.19,030610,,,A*6A
$GPRMC,050919.000,A,3602.9333,N,14007.2172,E,2.78,131.31,030610,,,A*6B
$GPRMC,050920.000,A,3602.9332,N,14007.2170,E,2.44,133.94,030610,,,A*60
$GPRMC,050921.000,A,3602.9329,N,14007.2170,E,3.17,144.39,030610,,,A*6B
$PSEN,Batt,V,3.72
$PSEN,CO2,ppm, 0428
$GPRMC,050922.000,A,3602.9324,N,14007.2170,E,3.40,146.78,030610,,,A*60
$GPRMC,050923.000,A,3602.9322,N,14007.2171,E,3.44,137.76,030610,,,A*6A
$GPRMC,050924.000,A,3602.9317,N,14007.2174,E,2.82,138.88,030610,,,A*6B
$GPRMC,050925.000,A,3602.9313,N,14007.2179,E,2.07,136.65,030610,,,A*63
$GPRMC,050926.000,A,3602.9312,N,14007.2179,E,1.58,136.65,030610,,,A*68
$PSEN,Batt,V,3.74
$PSEN,CO2,ppm, 0424
$GPRMC,050927.000,A,3602.9315,N,14007.2173,E,1.57,136.65,030610,,,A*6B
$GPRMC,050928.000,A,3602.9320,N,14007.2166,E,1.57,136.65,030610,,,A*66
$GPRMC,050929.000,A,3602.9324,N,14007.2159,E,1.57,136.65,030610,,,A*6F
$GPRMC,050930.000,A,3602.9325,N,14007.2157,E,1.58,136.65,030610,,,A*67
$GPRMC,050931.000,A,3602.9325,N,14007.2157,E,1.58,136.65,030610,,,A*66
$PSEN,Batt,V,3.74
$PSEN,CO2,ppm, 0428
$GPRMC,050932.000,A,3602.9322,N,14007.2165,E,1.58,132.78,030610,,,A*6B
$GPRMC,050933.000,A,3602.9328,N,14007.2157,E,1.88,132.78,030610,,,A*6C
$GPRMC,050934.000,A,3602.9327,N,14007.2160,E,1.87,132.78,030610,,,A*6F
$GPRMC,050935.000,A,3602.9325,N,14007.2161,E,1.87,132.78,030610,,,A*6D
$PSEN,Batt,V,3.72
$GPRMC,050936.000,A,3602.9325,N,14007.2155,E,1.87,132.78,030610,,,A*69
$PSEN,CO2,ppm, 0424
$GPRMC,050937.000,A,3602.9324,N,14007.2151,E,1.87,132.78,030610,,,A*6D
$GPRMC,050938.000,A,3602.9325,N,14007.2147,E,1.88,132.44,030610,,,A*64
$GPRMC,050939.000,A,3602.9324,N,14007.2150,E,2.66,127.28,030610,,,A*6F
$GPRMC,050940.000,A,3602.9322,N,14007.2154,E,2.42,123.76,030610,,,A*6A
$PSEN,Batt,V,3.74
$PSEN,CO2,ppm, 0425
$GPRMC,050941.000,A,3602.9320,N,14007.2158,E,0.14,123.76,030610,,,A*64
$GPRMC,050942.000,A,3602.9322,N,14007.2155,E,0.06,123.76,030610,,,A*6B
$GPRMC,050943.000,A,3602.9326,N,14007.2147,E,0.14,123.76,030610,,,A*6E
$GPRMC,050944.000,A,3602.9325,N,14007.2149,E,2.50,128.54,030610,,,A*6D
$GPRMC,050945.000,A,3602.9325,N,14007.2146,E,2.57,121.17,030610,,,A*6A
$PSEN,Batt,V,3.74
$PSEN,CO2,ppm, 0423
$GPRMC,050946.000,A,3602.9323,N,14007.2148,E,2.15,124.92,030610,,,A*6F
$GPRMC,050947.000,A,3602.9319,N,14007.2152,E,2.65,125.42,030610,,,A*67
$GPRMC,050948.000,A,3602.9317,N,14007.2152,E,2.48,135.28,030610,,,A*64
$GPRMC,050949.000,A,3602.9313,N,14007.2155,E,2.36,131.92,030610,,,A*6A
$GPRMC,050950.000,A,3602.9310,N,14007.2159,E,2.05,145.49,030610,,,A*68
$PSEN,Batt,V,3.72
$PSEN,CO2,ppm, 0426
$GPRMC,050951.000,A,3602.9308,N,14007.2157,E,1.57,145.49,030610,,,A*6A
$GPRMC,050952.000,A,3602.9308,N,14007.2151,E,1.56,145.49,030610,,,A*6E
$GPRMC,050953.000,A,3602.9312,N,14007.2139,E,1.56,145.49,030610,,,A*6A
$GPRMC,050954.000,A,3602.9316,N,14007.2131,E,1.56,145.49,030610,,,A*61
$GPRMC,050955.000,A,3602.9314,N,14007.2132,E,1.57,145.49,030610,,,A*60
$PSEN,Batt,V,3.74
$PSEN,CO2,ppm, 0428
$GPRMC,050956.000,A,3602.9320,N,14007.2121,E,1.56,145.49,030610,,,A*67
$GPRMC,050957.000,A,3602.9320,N,14007.2127,E,1.56,145.49,030610,,,A*60
$GPRMC,050958.000,A,3602.9322,N,14007.2125,E,1.56,145.49,030610,,,A*6F
$GPRMC,050959.000,A,3602.9323,N,14007.2124,E,1.56,145.49,030610,,,A*6E
$GPRMC,051000.000,A,3602.9325,N,14007.2123,E,1.56,145.49,030610,,,A*6B
$PSEN,Batt,V,3.72
$PSEN,CO2,ppm, 0421
$GPRMC,051001.000,A,3602.9328,N,14007.2119,E,1.55,145.49,030610,,,A*6D
$GPRMC,051002.000,A,3602.9336,N,14007.2107,E,1.55,145.49,030610,,,A*6E
$GPRMC,051003.000,A,3602.9345,N,14007.2097,E,1.55,145.49,030610,,,A*63
$GPRMC,051004.000,A,3602.9351,N,14007.2093,E,1.55,145.49,030610,,,A*65
$GPRMC,051005.000,A,3602.9355,N,14007.2089,E,1.55,145.49,030610,,,A*6B
$PSEN,Batt,V,3.75
$PSEN,CO2,ppm, 0419
$GPRMC,051006.000,A,3602.9356,N,14007.2090,E,1.55,145.49,030610,,,A*63
$GPRMC,051007.000,A,3602.9356,N,14007.2087,E,1.55,145.49,030610,,,A*64
$GPRMC,051008.000,A,3602.9361,N,14007.2086,E,1.55,145.49,030610,,,A*6E
$GPRMC,051009.000,A,3602.9367,N,14007.2082,E,1.55,145.49,030610,,,A*6D
$GPRMC,051010.000,A,3602.9372,N,14007.2080,E,1.55,145.49,030610,,,A*63
$PSEN,Batt,V,3.75
$PSEN,CO2,ppm, 0423
$GPRMC,051011.000,A,3602.9381,N,14007.2074,E,1.55,145.49,030610,,,A*65
$GPRMC,051012.000,A,3602.9387,N,14007.2071,E,1.55,145.49,030610,,,A*65
$GPRMC,051013.000,A,3602.9389,N,14007.2070,E,1.55,145.49,030610,,,A*6B
$GPRMC,051014.000,A,3602.9392,N,14007.2069,E,1.56,145.49,030610,,,A*6D
$PSEN,Batt,V,3.72
$GPRMC,051015.000,A,3602.9396,N,14007.2064,E,1.56,145.49,030610,,,A*65
$PSEN,CO2,ppm, 0424
$GPRMC,051016.000,A,3602.9396,N,14007.2064,E,1.56,145.49,030610,,,A*66
$GPRMC,051017.000,A,3602.9399,N,14007.2062,E,1.56,145.49,030610,,,A*6E
$GPRMC,051018.000,A,3602.9400,N,14007.2063,E,1.56,145.49,030610,,,A*67
$GPRMC,051019.000,A,3602.9402,N,14007.2063,E,1.56,145.49,030610,,,A*64
$PSEN,Batt,V,3.74
$PSEN,CO2,ppm, 0424
$GPRMC,051020.000,A,3602.9404,N,14007.2058,E,1.56,145.49,030610,,,A*60
$GPRMC,051021.000,A,3602.9405,N,14007.2052,E,1.56,145.49,030610,,,A*6A
$GPRMC,051022.000,A,3602.9405,N,14007.2053,E,1.56,145.49,030610,,,A*68
$GPRMC,051023.000,A,3602.9408,N,14007.2050,E,1.56,145.49,030610,,,A*67
$GPRMC,051024.000,A,3602.9411,N,14007.2046,E,1.56,145.49,030610,,,A*6F
$PSEN,Batt,V,3.74
$PSEN,CO2,ppm, 0427
$GPRMC,051025.000,A,3602.9413,N,14007.2039,E,1.56,145.49,030610,,,A*64
$GPRMC,051026.000,A,3602.9415,N,14007.2032,E,1.56,145.49,030610,,,A*6A
$GPRMC,051027.000,A,3602.9415,N,14007.2029,E,1.56,145.49,030610,,,A*61
$GPRMC,051028.000,A,3602.9415,N,14007.2026,E,1.56,145.49,030610,,,A*61
$GPRMC,051029.000,A,3602.9416,N,14007.2021,E,1.56,145.49,030610,,,A*64
$PSEN,Batt,V,3.72
$PSEN,CO2,ppm, 0431
$GPRMC,051030.000,A,3602.9418,N,14007.2017,E,1.56,145.49,030610,,,A*67
$GPRMC,051031.000,A,3602.9421,N,14007.2013,E,1.56,145.49,030610,,,A*68
$GPRMC,051032.000,A,3602.9425,N,14007.2007,E,1.56,145.49,030610,,,A*6A
$GPRMC,051033.000,A,3602.9428,N,14007.2004,E,1.56,145.49,030610,,,A*65
$GPRMC,051034.000,A,3602.9432,N,14007.2001,E,1.55,145.49,030610,,,A*6F
$PSEN,Batt,V,3.74
$PSEN,CO2,ppm, 0432
$GPRMC,051035.000,A,3602.9436,N,14007.1999,E,1.55,145.49,030610,,,A*61
$GPRMC,051036.000,A,3602.9447,N,14007.1988,E,1.56,145.49,030610,,,A*67
$GPRMC,051037.000,A,3602.9457,N,14007.1978,E,1.56,145.49,030610,,,A*68
$GPRMC,051038.000,A,3602.9461,N,14007.1969,E,1.56,145.49,030610,,,A*62
$GPRMC,051039.000,A,3602.9465,N,14007.1962,E,1.56,145.49,030610,,,A*6C
$PSEN,Batt,V,3.75
$PSEN,CO2,ppm, 0431
$GPRMC,051040.000,A,3602.9467,N,14007.1957,E,1.56,145.49,030610,,,A*66
$GPRMC,051041.000,A,3602.9469,N,14007.1953,E,1.55,145.49,030610,,,A*6E
$GPRMC,051042.000,A,3602.9471,N,14007.1949,E,1.55,145.49,030610,,,A*6F
$GPRMC,051043.000,A,3602.9472,N,14007.1950,E,1.55,145.49,030610,,,A*65
$GPRMC,051044.000,A,3602.9473,N,14007.1951,E,1.55,145.49,030610,,,A*62
$PSEN,Batt,V,3.75
$PSEN,CO2,ppm, 0431
$GPRMC,051045.000,A,3602.9473,N,14007.1953,E,1.55,145.49,030610,,,A*61
$GPRMC,051046.000,A,3602.9472,N,14007.1956,E,1.55,145.49,030610,,,A*66
$GPRMC,051047.000,A,3602.9471,N,14007.1956,E,1.55,145.49,030610,,,A*64
$GPRMC,051048.000,A,3602.9471,N,14007.1955,E,1.55,145.49,030610,,,A*68
$GPRMC,051049.000,A,3602.9471,N,14007.1956,E,1.55,145.49,030610,,,A*6A
$PSEN,Batt,V,3.75
$PSEN,CO2,ppm, 0432
$GPRMC,051050.000,A,3602.9470,N,14007.1955,E,1.55,145.49,030610,,,A*60
$GPRMC,051051.000,A,3602.9469,N,14007.1953,E,1.55,145.49,030610,,,A*6F
$GPRMC,051052.000,A,3602.9468,N,14007.1954,E,1.55,145.49,030610,,,A*6A
$GPRMC,051053.000,A,3602.9469,N,14007.1953,E,1.55,145.49,030610,,,A*6D
$GPRMC,051054.000,A,3602.9468,N,14007.1948,E,1.55,145.49,030610,,,A*61
$PSEN,Batt,V,3.72
$PSEN,CO2,ppm, 0431
$GPRMC,051055.000,A,3602.9469,N,14007.1945,E,1.55,145.49,030610,,,A*6C
$GPRMC,051056.000,A,3602.9470,N,14007.1945,E,1.55,145.49,030610,,,A*67
$GPRMC,051057.000,A,3602.9471,N,14007.1944,E,0.05,145.49,030610,,,A*62
$GPRMC,051058.000,A,3602.9539,N,14007.1846,E,0.05,145.49,030610,,,A*63
$PSEN,Batt,V,3.75
$PSEN,CO2,ppm, 0429
$GPRMC,051059.000,A,3602.9542,N,14007.1840,E,0.05,145.49,030610,,,A*68
$GPRMC,051100.000,A,3602.9546,N,14007.1834,E,0.05,145.49,030610,,,A*62
$GPRMC,051101.000,A,3602.9543,N,14007.1839,E,0.05,145.49,030610,,,A*6B
$GPRMC,051102.000,A,3602.9543,N,14007.1838,E,0.05,145.49,030610,,,A*69
$GPRMC,051103.000,A,3602.9542,N,14007.1838,E,0.05,145.49,030610,,,A*69
$PSEN,Batt,V,3.74
$PSEN,CO2,ppm, 0428
$GPRMC,051104.000,A,3602.9542,N,14007.1839,E,0.05,145.49,030610,,,A*6F
$GPRMC,051105.000,A,3602.9542,N,14007.1839,E,0.05,145.49,030610,,,A*6E
$GPRMC,051106.000,A,3602.9542,N,14007.1839,E,0.05,145.49,030610,,,A*6D
$GPRMC,051107.000,A,3602.9541,N,14007.1839,E,0.05,145.49,030610,,,A*6F
$GPRMC,051108.000,A,3602.9540,N,14007.1839,E,0.05,145.49,030610,,,A*61
$PSEN,Batt,V,3.72
$PSEN,CO2,ppm, 0425
$GPRMC,051109.000,A,3602.9540,N,14007.1840,E,0.05,145.49,030610,,,A*6E
$GPRMC,051110.000,A,3602.9539,N,14007.1842,E,0.06,145.49,030610,,,A*69
$GPRMC,051111.000,A,3602.9539,N,14007.1843,E,0.06,145.49,030610,,,A*69
$GPRMC,051112.000,A,3602.9540,N,14007.1846,E,0.06,145.49,030610,,,A*61
$GPRMC,051113.000,A,3602.9543,N,14007.1851,E,0.06,145.49,030610,,,A*65
$PSEN,Batt,V,3.74
$PSEN,CO2,ppm, 0420
$GPRMC,051114.000,A,3602.9544,N,14007.1855,E,0.06,145.49,030610,,,A*61
$GPRMC,051115.000,A,3602.9545,N,14007.1856,E,0.05,145.49,030610,,,A*61
$GPRMC,051116.000,A,3602.9548,N,14007.1854,E,0.05,145.49,030610,,,A*6D
$GPRMC,051117.000,A,3602.9548,N,14007.1860,E,0.05,145.49,030610,,,A*6B
$GPRMC,051118.000,A,3602.9549,N,14007.1861,E,0.05,145.49,030610,,,A*64
$PSEN,Batt,V,3.74
$PSEN,CO2,ppm, 0423
$GPRMC,051119.000,A,3602.9550,N,14007.1862,E,0.05,145.49,030610,,,A*6E
$GPRMC,051120.000,A,3602.9551,N,14007.1863,E,0.05,145.49,030610,,,A*64
$GPRMC,051121.000,A,3602.9552,N,14007.1864,E,0.05,145.49,030610,,,A*61
$GPRMC,051122.000,A,3602.9552,N,14007.1864,E,0.08,145.49,030610,,,A*6F
$GPRMC,051123.000,A,3602.9553,N,14007.1864,E,0.08,145.49,030610,,,A*6F
$PSEN,Batt,V,3.74
$PSEN,CO2,ppm, 0421
$GPRMC,051124.000,A,3602.9553,N,14007.1864,E,0.03,145.49,030610,,,A*63
$GPRMC,051125.000,A,3602.9553,N,14007.1864,E,0.03,145.49,030610,,,A*62
$GPRMC,051126.000,A,3602.9553,N,14007.1865,E,0.03,145.49,030610,,,A*60
$GPRMC,051127.000,A,3602.9553,N,14007.1865,E,0.03,145.49,030610,,,A*61
$GPRMC,051128.000,A,3602.9553,N,14007.1866,E,0.03,145.49,030610,,,A*6D
$PSEN,Batt,V,3.74
$PSEN,CO2,ppm, 0418
$GPRMC,051129.000,A,3602.9554,N,14007.1867,E,0.03,145.49,030610,,,A*6A
$GPRMC,051130.000,A,3602.9555,N,14007.1868,E,0.03,145.49,030610,,,A*6C
$GPRMC,051131.000,A,3602.9556,N,14007.1869,E,0.03,145.49,030610,,,A*6F
$GPRMC,051132.000,A,3602.9560,N,14007.1873,E,0.04,145.49,030610,,,A*65
$GPRMC,051133.000,A,3602.9564,N,14007.1876,E,0.04,145.49,030610,,,A*65
$PSEN,Batt,V,3.72
$PSEN,CO2,ppm, 0421
$GPRMC,051134.000,A,3602.9568,N,14007.1875,E,0.04,145.49,030610,,,A*6D
$GPRMC,051135.000,A,3602.9577,N,14007.1879,E,0.04,145.49,030610,,,A*6E
$GPRMC,051136.000,A,3602.9579,N,14007.1880,E,0.04,145.49,030610,,,A*65
$GPRMC,051137.000,A,3602.9583,N,14007.1881,E,0.04,145.49,030610,,,A*60
$PSEN,Batt,V,3.74
$GPRMC,051138.000,A,3602.9582,N,14007.1882,E,0.03,145.49,030610,,,A*6A
$PSEN,CO2,ppm, 0422
$GPRMC,051139.000,A,3602.9582,N,14007.1879,E,0.03,145.49,030610,,,A*6F
$GPRMC,051140.000,A,3602.9583,N,14007.1876,E,0.03,145.49,030610,,,A*6F
$GPRMC,051141.000,A,3602.9584,N,14007.1871,E,0.03,145.49,030610,,,A*6E
$GPRMC,051142.000,A,3602.9587,N,14007.1867,E,0.03,145.49,030610,,,A*69
$PSEN,Batt,V,3.74
$PSEN,CO2,ppm, 0424
$GPRMC,051143.000,A,3602.9587,N,14007.1868,E,0.03,145.49,030610,,,A*67
$GPRMC,051144.000,A,3602.9588,N,14007.1869,E,0.03,145.49,030610,,,A*6E
$GPRMC,051145.000,A,3602.9588,N,14007.1870,E,0.03,145.49,030610,,,A*67
$GPRMC,051146.000,A,3602.9588,N,14007.1871,E,0.03,145.49,030610,,,A*65
$GPRMC,051147.000,A,3602.9588,N,14007.1872,E,0.03,145.49,030610,,,A*67
$PSEN,Batt,V,3.72
$PSEN,CO2,ppm, 0430
$GPRMC,051148.000,A,3602.9588,N,14007.1873,E,0.03,145.49,030610,,,A*69
$GPRMC,051149.000,A,3602.9588,N,14007.1874,E,0.03,145.49,030610,,,A*6F
$GPRMC,051150.000,A,3602.9588,N,14007.1875,E,0.03,145.49,030610,,,A*66
$GPRMC,051151.000,A,3602.9587,N,14007.1877,E,0.03,145.49,030610,,,A*6A
$GPRMC,051152.000,A,3602.9586,N,14007.1877,E,0.03,145.49,030610,,,A*68
$PSEN,Batt,V,3.74
$PSEN,CO2,ppm, 0430
$GPRMC,051153.000,A,3602.9586,N,14007.1878,E,0.03,145.49,030610,,,A*66
$GPRMC,051154.000,A,3602.9585,N,14007.1879,E,0.03,145.49,030610,,,A*63
$GPRMC,051155.000,A,3602.9583,N,14007.1879,E,0.03,145.49,030610,,,A*64
$GPRMC,051156.000,A,3602.9582,N,14007.1880,E,0.03,145.49,030610,,,A*60
$GPRMC,051157.000,A,3602.9581,N,14007.1881,E,0.03,145.49,030610,,,A*63
$PSEN,Batt,V,3.75
$PSEN,CO2,ppm, 0434
$GPRMC,051158.000,A,3602.9580,N,14007.1881,E,0.03,145.49,030610,,,A*6D
$GPRMC,051159.000,A,3602.9579,N,14007.1882,E,0.07,145.49,030610,,,A*6D
$GPRMC,051200.000,A,3602.9579,N,14007.1882,E,0.02,145.49,030610,,,A*67
$GPRMC,051201.000,A,3602.9579,N,14007.1882,E,0.04,145.49,030610,,,A*60
$GPRMC,051202.000,A,3602.9579,N,14007.1882,E,0.04,145.49,030610,,,A*63
$PSEN,Batt,V,3.72
$PSEN,CO2,ppm, 0434
$GPRMC,051203.000,A,3602.9579,N,14007.1882,E,0.04,145.49,030610,,,A*62
$GPRMC,051204.000,A,3602.9578,N,14007.1884,E,0.04,145.49,030610,,,A*62
$GPRMC,051205.000,A,3602.9574,N,14007.1887,E,0.04,145.49,030610,,,A*6C
$GPRMC,051206.000,A,3602.9572,N,14007.1887,E,0.04,145.49,030610,,,A*69
$GPRMC,051207.000,A,3602.9574,N,14007.1887,E,0.04,145.49,030610,,,A*6E
$PSEN,Batt,V,3.74
$PSEN,CO2,ppm, 0426
$GPRMC,051208.000,A,3602.9576,N,14007.1886,E,0.04,145.49,030610,,,A*62
$GPRMC,051209.000,A,3602.9579,N,14007.1881,E,0.04,145.49,030610,,,A*6B
$GPRMC,051210.000,A,3602.9581,N,14007.1876,E,0.04,145.49,030610,,,A*6C
$GPRMC,051211.000,A,3602.9583,N,14007.1876,E,0.04,145.49,030610,,,A*6F
$GPRMC,051212.000,A,3602.9584,N,14007.1877,E,0.04,145.49,030610,,,A*6A
$PSEN,Batt,V,3.73
$PSEN,CO2,ppm, 0426
$GPRMC,051213.000,A,3602.9584,N,14007.1878,E,0.04,145.49,030610,,,A*64
$GPRMC,051214.000,A,3602.9584,N,14007.1878,E,0.04,145.49,030610,,,A*63
$GPRMC,051215.000,A,3602.9585,N,14007.1877,E,0.04,145.49,030610,,,A*6C
$GPRMC,051216.000,A,3602.9586,N,14007.1876,E,0.04,145.49,030610,,,A*6D
$GPRMC,051217.000,A,3602.9588,N,14007.1874,E,0.04,145.49,030610,,,A*60
$PSEN,Batt,V,3.74
$PSEN,CO2,ppm, 0426
$GPRMC,051218.000,A,3602.9586,N,14007.1873,E,0.04,145.49,030610,,,A*66
$GPRMC,051219.000,A,3602.9587,N,14007.1874,E,0.04,145.49,030610,,,A*61
$GPRMC,051220.000,A,3602.9586,N,14007.1876,E,0.04,145.49,030610,,,A*68
$GPRMC,051221.000,A,3602.9589,N,14007.1875,E,0.04,145.49,030610,,,A*65
$PSEN,Batt,V,3.74
$GPRMC,051222.000,A,3602.9590,N,14007.1875,E,0.04,145.49,030610,,,A*6E
$PSEN,CO2,ppm, 0424
$GPRMC,051223.000,A,3602.9591,N,14007.1874,E,0.04,145.49,030610,,,A*6F
$GPRMC,051224.000,A,3602.9592,N,14007.1874,E,0.04,145.49,030610,,,A*6B
$GPRMC,051225.000,A,3602.9591,N,14007.1874,E,0.04,145.49,030610,,,A*69
$GPRMC,051226.000,A,3602.9591,N,14007.1874,E,0.04,145.49,030610,,,A*6A
$PSEN,Batt,V,3.72
$PSEN,CO2,ppm, 0418
$GPRMC,051227.000,A,3602.9591,N,14007.1873,E,0.04,145.49,030610,,,A*6C
$GPRMC,051228.000,A,3602.9591,N,14007.1873,E,0.04,145.49,030610,,,A*63
$GPRMC,051229.000,A,3602.9591,N,14007.1873,E,0.04,145.49,030610,,,A*62
$GPRMC,051230.000,A,3602.9592,N,14007.1873,E,0.04,145.49,030610,,,A*69
$GPRMC,051231.000,A,3602.9592,N,14007.1873,E,0.04,145.49,030610,,,A*68
$PSEN,Batt,V,3.74
$PSEN,CO2,ppm, 0418
$GPRMC,051232.000,A,3602.9595,N,14007.1872,E,0.05,145.49,030610,,,A*6C
$GPRMC,051233.000,A,3602.9595,N,14007.1873,E,0.05,145.49,030610,,,A*6C
$GPRMC,051234.000,A,3602.9598,N,14007.1875,E,0.04,145.49,030610,,,A*61
$GPRMC,051235.000,A,3602.9578,N,14007.1886,E,0.04,145.49,030610,,,A*62
$GPRMC,051236.000,A,3602.9571,N,14007.1889,E,0.04,145.49,030610,,,A*67
$PSEN,Batt,V,3.74
$PSEN,CO2,ppm, 0419
$GPRMC,051237.000,A,3602.9561,N,14007.1897,E,0.04,145.49,030610,,,A*68
$GPRMC,051238.000,A,3602.9561,N,14007.1894,E,0.04,145.49,030610,,,A*64
$GPRMC,051239.000,A,3602.9553,N,14007.1895,E,0.04,145.49,030610,,,A*65
$GPRMC,051240.000,A,3602.9552,N,14007.1896,E,0.05,145.49,030610,,,A*68
$GPRMC,051241.000,A,3602.9552,N,14007.1895,E,0.08,145.49,030610,,,A*67
$PSEN,Batt,V,3.72
$PSEN,CO2,ppm, 0420
$GPRMC,051242.000,A,3602.9552,N,14007.1896,E,0.84,145.49,030610,,,A*63
$GPRMC,051243.000,A,3602.9542,N,14007.1894,E,0.84,145.49,030610,,,A*61
$GPRMC,051244.000,A,3602.9539,N,14007.1892,E,0.84,145.49,030610,,,A*6C
$GPRMC,051245.000,A,3602.9536,N,14007.1895,E,0.84,145.49,030610,,,A*65
$GPRMC,051246.000,A,3602.9542,N,14007.1896,E,0.84,145.49,030610,,,A*66
$PSEN,Batt,V,3.74
$PSEN,CO2,ppm, 0419
$GPRMC,051247.000,A,3602.9544,N,14007.1902,E,0.84,145.49,030610,,,A*6D
$GPRMC,051248.000,A,3602.9542,N,14007.1914,E,0.84,145.49,030610,,,A*63
$GPRMC,051249.000,A,3602.9546,N,14007.1922,E,0.84,145.49,030610,,,A*63
$GPRMC,051250.000,A,3602.9552,N,14007.1936,E,0.84,145.49,030610,,,A*6B
$GPRMC,051251.000,A,3602.9557,N,14007.1940,E,0.84,145.49,030610,,,A*6E
$PSEN,Batt,V,3.73
$PSEN,CO2,ppm, 0414
$GPRMC,051252.000,A,3602.9561,N,14007.1946,E,0.84,145.49,030610,,,A*6E
$GPRMC,051253.000,A,3602.9566,N,14007.1954,E,0.84,145.49,030610,,,A*6B
$GPRMC,051254.000,A,3602.9570,N,14007.1964,E,0.84,145.49,030610,,,A*68
$GPRMC,051255.000,A,3602.9573,N,14007.1967,E,0.84,145.49,030610,,,A*69
$GPRMC,051256.000,A,3602.9576,N,14007.1973,E,0.84,145.49,030610,,,A*6A
$PSEN,Batt,V,3.75
$PSEN,CO2,ppm, 0416
$GPRMC,051257.000,A,3602.9580,N,14007.1975,E,0.84,145.49,030610,,,A*64
$GPRMC,051258.000,A,3602.9586,N,14007.1978,E,0.84,145.49,030610,,,A*60
$GPRMC,051259.000,A,3602.9584,N,14007.1979,E,0.84,145.49,030610,,,A*62
$GPRMC,051300.000,A,3602.9590,N,14007.1984,E,0.85,145.49,030610,,,A*69
$PSEN,Batt,V,3.74
$GPRMC,051301.000,A,3602.9600,N,14007.1992,E,0.85,43.58,030610,,,A*52
$PSEN,CO2,ppm, 0425
$GPRMC,051302.000,A,3602.9601,N,14007.1997,E,1.72,43.58,030610,,,A*5C
$GPRMC,051303.000,A,3602.9606,N,14007.2002,E,1.72,43.58,030610,,,A*5C
$GPRMC,051304.000,A,3602.9611,N,14007.2005,E,1.72,43.58,030610,,,A*5A
$GPRMC,051305.000,A,3602.9620,N,14007.2009,E,1.72,43.58,030610,,,A*55
$PSEN,Batt,V,3.73
$PSEN,CO2,ppm, 0426
$GPRMC,051306.000,A,3602.9626,N,14007.2018,E,1.72,33.57,030610,,,A*58
$GPRMC,051307.000,A,3602.9630,N,14007.2025,E,2.15,39.38,030610,,,A*51
$GPRMC,051308.000,A,3602.9631,N,14007.2034,E,2.00,46.22,030610,,,A*58
$GPRMC,051309.000,A,3602.9634,N,14007.2037,E,1.61,46.22,030610,,,A*5B
$GPRMC,051310.000,A,3602.9637,N,14007.2040,E,1.61,46.22,030610,,,A*50
$PSEN,Batt,V,3.74
$PSEN,CO2,ppm, 0427
$GPRMC,051311.000,A,3602.9639,N,14007.2046,E,1.61,46.22,030610,,,A*59
$GPRMC,051312.000,A,3602.9642,N,14007.2052,E,1.61,60.08,030610,,,A*5F
$GPRMC,051313.000,A,3602.9644,N,14007.2060,E,2.05,65.91,030610,,,A*5D
$GPRMC,051314.000,A,3602.9645,N,14007.2069,E,2.05,71.67,030610,,,A*5E
$GPRMC,051315.000,A,3602.9644,N,14007.2080,E,1.98,79.92,030610,,,A*5C
$PSEN,Batt,V,3.75
$PSEN,CO2,ppm, 0424
$GPRMC,051316.000,A,3602.9645,N,14007.2088,E,1.93,79.92,030610,,,A*5D
$GPRMC,051317.000,A,3602.9648,N,14007.2101,E,1.94,77.16,030610,,,A*54
$GPRMC,051318.000,A,3602.9650,N,14007.2108,E,2.07,75.59,030610,,,A*5B
$GPRMC,051319.000,A,3602.9654,N,14007.2112,E,1.92,75.59,030610,,,A*5A
$GPRMC,051320.000,A,3602.9658,N,14007.2115,E,1.92,75.59,030610,,,A*5B
$PSEN,Batt,V,3.72
$PSEN,CO2,ppm, 0423
$GPRMC,051321.000,A,3602.9660,N,14007.2117,E,1.92,75.59,030610,,,A*53
$GPRMC,051322.000,A,3602.9664,N,14007.2122,E,1.92,75.59,030610,,,A*52
$GPRMC,051323.000,A,3602.9670,N,14007.2129,E,1.92,75.59,030610,,,A*5D
$GPRMC,051324.000,A,3602.9677,N,14007.2134,E,1.92,75.59,030610,,,A*51
$GPRMC,051325.000,A,3602.9681,N,14007.2139,E,1.92,75.59,030610,,,A*54
$PSEN,Batt,V,3.75
$PSEN,CO2,ppm, 0424
$GPRMC,051326.000,A,3602.9684,N,14007.2144,E,1.91,75.59,030610,,,A*5B
$GPRMC,051327.000,A,3602.9684,N,14007.2146,E,1.91,75.59,030610,,,A*58
$GPRMC,051328.000,A,3602.9679,N,14007.2147,E,1.91,75.59,030610,,,A*54
$GPRMC,051329.000,A,3602.9679,N,14007.2148,E,1.91,75.59,030610,,,A*5A
$GPRMC,051330.000,A,3602.9679,N,14007.2154,E,1.91,75.59,030610,,,A*5F
$PSEN,Batt,V,3.72
$PSEN,CO2,ppm, 0419
$GPRMC,051331.000,A,3602.9683,N,14007.2154,E,1.91,75.59,030610,,,A*5B
$GPRMC,051332.000,A,3602.9684,N,14007.2153,E,1.91,75.59,030610,,,A*58
$GPRMC,051333.000,A,3602.9685,N,14007.2154,E,1.91,75.59,030610,,,A*5F
$GPRMC,051334.000,A,3602.9686,N,14007.2160,E,1.91,75.59,030610,,,A*5C
$GPRMC,051335.000,A,3602.9691,N,14007.2157,E,1.91,75.59,030610,,,A*5F
$PSEN,Batt,V,3.74
$PSEN,CO2,ppm, 0418
$GPRMC,051336.000,A,3602.9697,N,14007.2152,E,1.91,75.59,030610,,,A*5F
$GPRMC,051337.000,A,3602.9703,N,14007.2149,E,1.91,75.59,030610,,,A*58
$GPRMC,051338.000,A,3602.9714,N,14007.2143,E,1.91,75.59,030610,,,A*5B
$GPRMC,051339.000,A,3602.9722,N,14007.2146,E,1.91,75.59,030610,,,A*5A
$GPRMC,051340.000,A,3602.9728,N,14007.2143,E,1.91,75.59,030610,,,A*5B
$PSEN,Batt,V,3.75
$PSEN,CO2,ppm, 0421
$GPRMC,051341.000,A,3602.9734,N,14007.2137,E,1.91,75.59,030610,,,A*54
$GPRMC,051342.000,A,3602.9740,N,14007.2133,E,1.92,75.59,030610,,,A*53
$GPRMC,051343.000,A,3602.9749,N,14007.2127,E,1.92,75.59,030610,,,A*5E
$GPRMC,051344.000,A,3602.9752,N,14007.2120,E,1.91,75.59,030610,,,A*57
$PSEN,Batt,V,3.72
$GPRMC,051345.000,A,3602.9757,N,14007.2117,E,1.91,75.59,030610,,,A*57
$PSEN,CO2,ppm, 0420
$GPRMC,051346.000,A,3602.9762,N,14007.2115,E,1.91,75.59,030610,,,A*50
$GPRMC,051347.000,A,3602.9766,N,14007.2114,E,1.91,75.59,030610,,,A*54
$GPRMC,051348.000,A,3602.9771,N,14007.2113,E,1.91,75.59,030610,,,A*5A
$GPRMC,051349.000,A,3602.9775,N,14007.2112,E,1.91,75.59,030610,,,A*5E
$PSEN,Batt,V,3.75
$PSEN,CO2,ppm, 0420
$GPRMC,051350.000,A,3602.9780,N,14007.2109,E,1.91,75.59,030610,,,A*56
$GPRMC,051351.000,A,3602.9787,N,14007.2108,E,1.92,75.59,030610,,,A*52
$GPRMC,051352.000,A,3602.9790,N,14007.2107,E,1.92,75.59,030610,,,A*58
$GPRMC,051353.000,A,3602.9796,N,14007.2107,E,1.92,75.59,030610,,,A*5F
$GPRMC,051354.000,A,3602.9803,N,14007.2105,E,1.92,75.59,030610,,,A*59
$PSEN,Batt,V,3.75
$PSEN,CO2,ppm, 0423
$GPRMC,051355.000,A,3602.9811,N,14007.2099,E,1.92,75.59,030610,,,A*5F
$GPRMC,051356.000,A,3602.9819,N,14007.2088,E,1.92,75.59,030610,,,A*54
$GPRMC,051357.000,A,3602.9825,N,14007.2085,E,1.92,75.59,030610,,,A*57
$GPRMC,051358.000,A,3602.9829,N,14007.2083,E,1.92,75.59,030610,,,A*52
$GPRMC,051359.000,A,3602.9830,N,14007.2086,E,1.92,75.59,030610,,,A*5E
$PSEN,Batt,V,3.73
$PSEN,CO2,ppm, 0420
$GPRMC,051400.000,A,3602.9833,N,14007.2089,E,1.91,75.59,030610,,,A*5A
$GPRMC,051401.000,A,3602.9831,N,14007.2093,E,1.91,75.59,030610,,,A*52
$GPRMC,051402.000,A,3602.9836,N,14007.2095,E,1.91,75.59,030610,,,A*50
$GPRMC,051403.000,A,3602.9841,N,14007.2090,E,1.91,75.59,030610,,,A*54
$GPRMC,051404.000,A,3602.9847,N,14007.2088,E,1.92,75.59,030610,,,A*5F
$PSEN,Batt,V,3.75
$PSEN,CO2,ppm, 0423
$GPRMC,051405.000,A,3602.9853,N,14007.2085,E,1.92,75.59,030610,,,A*56
$GPRMC,051406.000,A,3602.9862,N,14007.2079,E,1.92,75.59,030610,,,A*54
$GPRMC,051407.000,A,3602.9868,N,14007.2074,E,1.92,75.59,030610,,,A*52
$GPRMC,051408.000,A,3602.9872,N,14007.2071,E,1.92,75.59,030610,,,A*53
$GPRMC,051409.000,A,3602.9878,N,14007.2071,E,1.92,75.59,030610,,,A*58
$PSEN,Batt,V,3.73
$PSEN,CO2,ppm, 0422
$GPRMC,051410.000,A,3602.9884,N,14007.2069,E,1.92,75.59,030610,,,A*5A
$GPRMC,051411.000,A,3602.9890,N,14007.2064,E,1.92,75.59,030610,,,A*53
$GPRMC,051412.000,A,3602.9895,N,14007.2063,E,1.92,75.59,030610,,,A*52
$GPRMC,051413.000,A,3602.9901,N,14007.2064,E,1.92,75.59,030610,,,A*58
$GPRMC,051414.000,A,3602.9908,N,14007.2058,E,1.92,75.59,030610,,,A*59
$PSEN,Batt,V,3.74
$PSEN,CO2,ppm, 0425
$GPRMC,051415.000,A,3602.9913,N,14007.2052,E,1.92,75.59,030610,,,A*58
$GPRMC,051416.000,A,3602.9918,N,14007.2047,E,1.92,75.59,030610,,,A*54
$GPRMC,051417.000,A,3602.9924,N,14007.2040,E,1.92,75.59,030610,,,A*5D
$GPRMC,051418.000,A,3602.9923,N,14007.2047,E,1.92,75.59,030610,,,A*52
$GPRMC,051419.000,A,3602.9925,N,14007.2048,E,1.92,75.59,030610,,,A*5A
$PSEN,Batt,V,3.74
$PSEN,CO2,ppm, 0421
$GPRMC,051420.000,A,3602.9931,N,14007.2047,E,1.92,75.59,030610,,,A*5A
$GPRMC,051421.000,A,3602.9934,N,14007.2048,E,1.91,75.59,030610,,,A*52
$GPRMC,051422.000,A,3602.9939,N,14007.2046,E,1.91,75.59,030610,,,A*52
$GPRMC,051423.000,A,3602.9944,N,14007.2041,E,1.92,75.59,030610,,,A*5D
$PSEN,Batt,V,3.72
$GPRMC,051424.000,A,3602.9949,N,14007.2035,E,1.92,75.59,030610,,,A*54
$PSEN,CO2,ppm, 0417
$GPRMC,051425.000,A,3602.9953,N,14007.2029,E,1.92,75.59,030610,,,A*53
$GPRMC,051426.000,A,3602.9960,N,14007.2021,E,1.92,312.48,030610,,,A*6A
$GPRMC,051427.000,A,3602.9963,N,14007.2012,E,1.99,303.79,030610,,,A*61
$GPRMC,051428.000,A,3602.9968,N,14007.2000,E,2.23,298.09,030610,,,A*60
$PSEN,Batt,V,3.75
$PSEN,CO2,ppm, 0420
$GPRMC,051429.000,A,3602.9973,N,14007.1991,E,2.22,294.35,030610,,,A*6B
$GPRMC,051430.000,A,3602.9975,N,14007.1984,E,1.93,294.35,030610,,,A*68
$GPRMC,051431.000,A,3602.9978,N,14007.1980,E,1.93,294.35,030610,,,A*60
$GPRMC,051432.000,A,3602.9980,N,14007.1977,E,1.92,294.35,030610,,,A*6D
$GPRMC,051433.000,A,3602.9982,N,14007.1972,E,1.93,294.35,030610,,,A*6A
$PSEN,Batt,V,3.75
$PSEN,CO2,ppm, 0420
$GPRMC,051434.000,A,3602.9983,N,14007.1968,E,1.93,294.35,030610,,,A*67
$GPRMC,051435.000,A,3602.9987,N,14007.1966,E,1.92,294.35,030610,,,A*6D
$GPRMC,051436.000,A,3602.9989,N,14007.1959,E,1.92,294.35,030610,,,A*6C
$GPRMC,051437.000,A,3602.9985,N,14007.1949,E,1.93,294.35,030610,,,A*61
$GPRMC,051438.000,A,3602.9986,N,14007.1942,E,1.93,294.35,030610,,,A*66
$PSEN,Batt,V,3.72
$PSEN,CO2,ppm, 0420
$GPRMC,051439.000,A,3602.9983,N,14007.1934,E,1.93,294.35,030610,,,A*63
$GPRMC,051440.000,A,3602.9982,N,14007.1929,E,1.92,294.35,030610,,,A*61
$GPRMC,051441.000,A,3602.9983,N,14007.1928,E,1.92,294.35,030610,,,A*60
$GPRMC,051442.000,A,3602.9982,N,14007.1922,E,1.92,294.35,030610,,,A*68
$GPRMC,051443.000,A,3602.9984,N,14007.1914,E,1.92,294.35,030610,,,A*6A
$PSEN,Batt,V,3.74
$PSEN,CO2,ppm, 0419
$GPRMC,051444.000,A,3602.9988,N,14007.1908,E,1.92,294.35,030610,,,A*6C
$GPRMC,051445.000,A,3602.9989,N,14007.1899,E,1.92,294.35,030610,,,A*65
$GPRMC,051446.000,A,3602.9992,N,14007.1893,E,1.93,294.35,030610,,,A*67
$GPRMC,051447.000,A,3602.9996,N,14007.1890,E,1.93,294.35,030610,,,A*61
$GPRMC,051448.000,A,3603.0001,N,14007.1885,E,1.93,294.35,030610,,,A*65
$PSEN,Batt,V,3.74
$PSEN,CO2,ppm, 0421
$GPRMC,051449.000,A,3603.0006,N,14007.1874,E,1.93,294.35,030610,,,A*6D
$GPRMC,051450.000,A,3603.0008,N,14007.1864,E,1.93,294.35,030610,,,A*6A
$GPRMC,051451.000,A,3603.0011,N,14007.1858,E,1.93,294.35,030610,,,A*6C
$GPRMC,051452.000,A,3603.0012,N,14007.1850,E,1.93,289.70,030610,,,A*69
$GPRMC,051453.000,A,3603.0015,N,14007.1842,E,2.03,291.84,030610,,,A*64
$PSEN,Batt,V,3.75
$PSEN,CO2,ppm, 0419
$GPRMC,051454.000,A,3603.0019,N,14007.1836,E,2.12,289.77,030610,,,A*69
$GPRMC,051455.000,A,3603.0018,N,14007.1826,E,2.28,278.96,030610,,,A*60
$GPRMC,051456.000,A,3603.0013,N,14007.1810,E,2.38,273.04,030610,,,A*6C
$GPRMC,051457.000,A,3603.0014,N,14007.1800,E,2.25,274.00,030610,,,A*64
$GPRMC,051458.000,A,3603.0016,N,14007.1791,E,2.24,273.77,030610,,,A*68
$PSEN,Batt,V,3.75
$PSEN,CO2,ppm, 0421
$GPRMC,051459.000,A,3603.0017,N,14007.1785,E,2.00,272.65,030610,,,A*69
$GPRMC,051500.000,A,3603.0017,N,14007.1778,E,1.90,272.65,030610,,,A*6C
$GPRMC,051501.000,A,3603.0018,N,14007.1770,E,1.90,267.41,030610,,,A*68
$GPRMC,051502.000,A,3603.0017,N,14007.1759,E,2.14,266.32,030610,,,A*65
$GPRMC,051503.000,A,3603.0018,N,14007.1751,E,2.10,269.67,030610,,,A*68
$PSEN,Batt,V,3.72
$PSEN,CO2,ppm, 0426
$GPRMC,051504.000,A,3603.0019,N,14007.1743,E,2.11,272.13,030610,,,A*65
$GPRMC,051505.000,A,3603.0023,N,14007.1736,E,1.97,282.52,030610,,,A*68
$GPRMC,051506.000,A,3603.0027,N,14007.1730,E,1.94,282.52,030610,,,A*6A
$GPRMC,051507.000,A,3603.0031,N,14007.1722,E,1.94,293.32,030610,,,A*69
$PSEN,Batt,V,3.75
$GPRMC,051508.000,A,3603.0036,N,14007.1714,E,2.20,296.07,030610,,,A*6B
$PSEN,CO2,ppm, 0422
$GPRMC,051509.000,A,3603.0040,N,14007.1706,E,2.37,296.79,030610,,,A*67
$GPRMC,051510.000,A,3603.0045,N,14007.1698,E,2.43,298.61,030610,,,A*68
$GPRMC,051511.000,A,3603.0045,N,14007.1686,E,2.52,300.79,030610,,,A*6F
$GPRMC,051512.000,A,3603.0050,N,14007.1678,E,2.53,304.03,030610,,,A*61
$PSEN,Batt,V,3.74
$PSEN,CO2,ppm, 0418
$GPRMC,051513.000,A,3603.0054,N,14007.1671,E,2.48,308.07,030610,,,A*6F
$GPRMC,051514.000,A,3603.0059,N,14007.1664,E,2.48,309.25,030610,,,A*60
$GPRMC,051515.000,A,3603.0063,N,14007.1658,E,2.41,309.77,030610,,,A*69
$GPRMC,051516.000,A,3603.0067,N,14007.1651,E,2.39,309.54,030610,,,A*69
$GPRMC,051517.000,A,3603.0072,N,14007.1644,E,2.34,310.40,030610,,,A*68
$PSEN,Batt,V,3.72
$PSEN,CO2,ppm, 0415
$GPRMC,051518.000,A,3603.0077,N,14007.1636,E,2.36,310.34,030610,,,A*66
$GPRMC,051519.000,A,3603.0085,N,14007.1623,E,2.85,309.53,030610,,,A*6F
$GPRMC,051520.000,A,3603.0093,N,14007.1614,E,3.06,310.30,030610,,,A*61
$GPRMC,051521.000,A,3603.0100,N,14007.1604,E,3.42,315.16,030610,,,A*6B
$GPRMC,051522.000,A,3603.0107,N,14007.1597,E,3.28,317.59,030610,,,A*63
$PSEN,Batt,V,3.74
$PSEN,CO2,ppm, 0414
$GPRMC,051523.000,A,3603.0113,N,14007.1589,E,3.27,307.64,030610,,,A*68
$GPRMC,051524.000,A,3603.0118,N,14007.1581,E,3.32,302.43,030610,,,A*68
$GPRMC,051525.000,A,3603.0124,N,14007.1573,E,3.33,301.72,030610,,,A*6B
$GPRMC,051526.000,A,3603.0127,N,14007.1564,E,3.23,295.42,030610,,,A*63
$GPRMC,051527.000,A,3603.0132,N,14007.1558,E,2.54,310.38,030610,,,A*69
$PSEN,Batt,V,3.74
$PSEN,CO2,ppm, 0414
$GPRMC,051528.000,A,3603.0136,N,14007.1553,E,2.33,313.83,030610,,,A*6B
$GPRMC,051529.000,A,3603.0140,N,14007.1548,E,2.33,317.22,030610,,,A*6E
$GPRMC,051530.000,A,3603.0144,N,14007.1541,E,2.77,308.47,030610,,,A*66
$GPRMC,051531.000,A,3603.0147,N,14007.1531,E,3.09,296.99,030610,,,A*6E
$GPRMC,051532.000,A,3603.0143,N,14007.1519,E,3.35,285.82,030610,,,A*64
$PSEN,Batt,V,3.75
$PSEN,CO2,ppm, 0414
$GPRMC,051533.000,A,3603.0149,N,14007.1509,E,3.01,292.89,030610,,,A*64
$GPRMC,051534.000,A,3603.0154,N,14007.1500,E,2.87,295.28,030610,,,A*65
$GPRMC,051535.000,A,3603.0166,N,14007.1486,E,3.98,301.59,030610,,,A*6F
$GPRMC,051536.000,A,3603.0181,N,14007.1472,E,4.70,308.15,030610,,,A*6E
$GPRMC,051537.000,A,3603.0195,N,14007.1455,E,5.64,308.53,030610,,,A*69
$PSEN,Batt,V,3.75
$PSEN,CO2,ppm, 0413
$GPRMC,051538.000,A,3603.0213,N,14007.1435,E,6.41,312.87,030610,,,A*6B
$GPRMC,051539.000,A,3603.0230,N,14007.1414,E,6.96,315.40,030610,,,A*6E
$GPRMC,051540.000,A,3603.0251,N,14007.1391,E,7.99,313.52,030610,,,A*66
$GPRMC,051541.000,A,3603.0272,N,14007.1367,E,8.62,314.11,030610,,,A*64
$GPRMC,051542.000,A,3603.0295,N,14007.1340,E,9.17,312.84,030610,,,A*62
$PSEN,Batt,V,3.72
$PSEN,CO2,ppm, 0416
$GPRMC,051543.000,A,3603.0318,N,14007.1313,E,9.54,313.12,030610,,,A*68
$GPRMC,051544.000,A,3603.0343,N,14007.1285,E,9.95,314.10,030610,,,A*67
$GPRMC,051545.000,A,3603.0367,N,14007.1257,E,9.87,316.22,030610,,,A*6F
$GPRMC,051546.000,A,3603.0391,N,14007.1229,E,9.93,317.16,030610,,,A*6F
$GPRMC,051547.000,A,3603.0414,N,14007.1203,E,9.76,318.14,030610,,,A*6A
$PSEN,Batt,V,3.73
$PSEN,CO2,ppm, 0412
$GPRMC,051548.000,A,3603.0438,N,14007.1177,E,9.72,318.63,030610,,,A*6F
$GPRMC,051549.000,V,3603.0462,N,14007.1153,E,9.75,319.04,030610,,,E*73
$GPRMC,051550.000,V,3603.0491,N,14007.1125,E,10.16,322.25,030610,,,E*40
$GPRMC,051551.000,V,3603.0523,N,14007.1098,E,10.74,324.49,030610,,,E*46
$GPRMC,051552.000,V,3603.0557,N,14007.1070,E,11.38,326.21,030610,,,E*45
$PSEN,Batt,V,3.74
$PSEN,CO2,ppm, 0411
$GPRMC,051553.000,V,3603.0593,N,14007.1042,E,12.10,326.63,030610,,,E*42
$GPRMC,051554.000,V,3603.0631,N,14007.1015,E,12.77,327.59,030610,,,E*45
$GPRMC,051555.000,V,3603.0671,N,14007.0987,E,13.32,327.67,030610,,,N*45
$GPRMC,051556.000,V,3603.0746,N,14007.0928,E,13.33,327.73,030610,,,N*42
$PSEN,Batt,V,3.71
$GPRMC,051557.000,V,3603.0762,N,14007.0910,E,12.07,326.09,030610,,,N*44
$PSEN,CO2,ppm, 0415
$GPRMC,051558.000,V,3603.0450,N,14007.1141,E,10.53,321.82,030610,,,N*43
$GPRMC,051559.000,V,3603.0467,N,14007.1122,E,8.76,316.47,030610,,,N*70
$GPRMC,051600.000,V,3603.0482,N,14007.1099,E,7.52,305.35,030610,,,N*7B
$GPRMC,051601.000,V,3603.0491,N,14007.1077,E,6.37,294.93,030610,,,N*7F
$PSEN,Batt,V,3.73
$PSEN,CO2,ppm, 0411
$GPRMC,051602.000,V,3603.0497,N,14007.1057,E,5.58,284.42,030610,,,N*7F
$GPRMC,051603.000,V,3603.0499,N,14007.1046,E,3.36,284.42,030610,,,N*7E
$GPRMC,051604.000,V,3603.0501,N,14007.1040,E,1.89,284.42,030610,,,N*79
$GPRMC,051605.000,V,3603.0501,N,14007.1037,E,0.10,284.42,030610,,,N*79
$GPRMC,051606.000,V,3603.0502,N,14007.1035,E,0.05,284.42,030610,,,N*7F
$PSEN,Batt,V,3.73
$PSEN,CO2,ppm, 0414
$GPRMC,051607.000,V,3603.0502,N,14007.1034,E,0.02,284.42,030610,,,N*78
$GPRMC,051608.000,V,3603.0502,N,14007.1034,E,0.01,284.42,030610,,,N*74
$GPRMC,051609.000,V,3603.0502,N,14007.1034,E,0.00,284.42,030610,,,N*74
$GPRMC,051610.000,V,3603.0502,N,14007.1034,E,0.00,284.42,030610,,,N*7C
$GPRMC,051611.000,V,3603.0502,N,14007.1034,E,0.00,284.42,030610,,,N*7D
$PSEN,Batt,V,3.71
$PSEN,CO2,ppm, 0417
$GPRMC,051612.000,V,3603.1428,N,14006.9706,E,1.76,284.42,030610,,,N*79
$GPRMC,051613.000,V,3603.1451,N,14006.9714,E,1.76,284.42,030610,,,N*75
$GPRMC,051614.000,V,3603.1467,N,14006.9727,E,1.75,284.42,030610,,,N*74
$GPRMC,051615.000,V,3603.1458,N,14006.9787,E,1.76,284.42,030610,,,N*70
$GPRMC,051616.000,V,3603.1460,N,14006.9824,E,1.76,284.42,030610,,,N*7E
$PSEN,Batt,V,3.75
$PSEN,CO2,ppm, 0423
$GPRMC,051617.000,V,3603.1446,N,14006.9868,E,1.76,284.42,030610,,,N*73
$GPRMC,051618.000,V,3603.1439,N,14006.9899,E,1.76,284.42,030610,,,N*7A
$GPRMC,051619.000,V,3603.1437,N,14006.9923,E,1.76,284.42,030610,,,N*75
$GPRMC,051620.000,V,3603.1419,N,14006.9949,E,1.75,284.42,030610,,,N*7C
$GPRMC,051621.000,V,3603.1407,N,14006.9967,E,1.75,284.42,030610,,,N*7E
$PSEN,Batt,V,3.70
$PSEN,CO2,ppm, 0428
$GPRMC,051622.000,V,3603.1398,N,14006.9977,E,1.75,284.42,030610,,,N*7D
$GPRMC,051623.000,V,3603.1392,N,14006.9985,E,1.75,284.42,030610,,,N*7B
$GPRMC,051624.000,V,3603.1149,N,14007.0226,E,8.13,122.42,030610,,,N*74
$GPRMC,051625.000,V,3603.1013,N,14007.0361,E,5.77,115.85,030610,,,N*79
$GPRMC,051626.000,V,3603.0509,N,14007.0821,E,8.87,127.01,030610,,,N*75
$PSEN,Batt,V,3.74
$PSEN,CO2,ppm, 0425
$GPRMC,051627.000,V,3603.0342,N,14007.0977,E,5.43,112.74,030610,,,N*7E
$GPRMC,051628.000,V,3603.0243,N,14007.1065,E,4.39,104.56,030610,,,N*71
$GPRMC,051629.000,V,3603.0180,N,14007.1124,E,4.02,98.83,030610,,,N*4C
$GPRMC,051630.000,V,3603.0135,N,14007.1173,E,3.89,100.90,030610,,,N*7E
$GPRMC,051631.000,V,3603.1674,N,14007.2506,E,4.33,108.78,030610,,,N*71
$PSEN,Batt,V,3.74
$PSEN,CO2,ppm, 0424
$GPRMC,051632.000,V,3603.1673,N,14007.2508,E,0.06,108.78,030610,,,N*79
$GPRMC,051633.000,V,3603.1673,N,14007.2508,E,0.01,108.78,030610,,,N*7F
$GPRMC,051634.000,V,3603.1673,N,14007.2508,E,0.00,108.78,030610,,,N*79
$GPRMC,051635.000,V,3603.1673,N,14007.2508,E,0.00,108.78,030610,,,N*78
$GPRMC,051636.000,V,3603.1673,N,14007.2508,E,0.00,108.78,030610,,,N*7B
$PSEN,Batt,V,3.72
$PSEN,CO2,ppm, 0420
$GPRMC,051637.000,V,3603.1673,N,14007.2508,E,0.00,108.78,030610,,,N*7A
$GPRMC,051638.000,V,3603.1673,N,14007.2508,E,0.00,108.78,030610,,,N*75
$GPRMC,051639.000,V,3603.1673,N,14007.2508,E,0.00,108.78,030610,,,N*74
$GPRMC,051640.000,V,3603.1673,N,14007.2508,E,0.00,108.78,030610,,,N*7A
$PSEN,Batt,V,3.74
$GPRMC,051641.000,V,3603.1673,N,14007.2508,E,0.00,108.78,030610,,,N*7B
$PSEN,CO2,ppm, 0421
$GPRMC,051642.000,V,3603.1673,N,14007.2508,E,0.00,108.78,030610,,,N*78
$GPRMC,051643.000,V,3603.1673,N,14007.2508,E,0.00,108.78,030610,,,N*79
$GPRMC,051644.000,V,3603.1673,N,14007.2508,E,0.00,108.78,030610,,,N*7E
$GPRMC,051645.000,V,3603.1673,N,14007.2508,E,0.00,108.78,030610,,,N*7F
$PSEN,Batt,V,3.74
$PSEN,CO2,ppm, 0421
$GPRMC,051646.000,V,3603.1673,N,14007.2508,E,0.00,108.78,030610,,,N*7C
$GPRMC,051647.000,V,3603.1673,N,14007.2508,E,0.00,108.78,030610,,,N*7D
$GPRMC,051648.000,V,3603.1673,N,14007.2508,E,0.00,108.78,030610,,,N*72
$GPRMC,051649.000,V,3603.1673,N,14007.2508,E,0.00,108.78,030610,,,N*73
$GPRMC,051650.000,V,3603.1673,N,14007.2508,E,0.00,108.78,030610,,,N*7B
$PSEN,Batt,V,3.71
$PSEN,CO2,ppm, 0427
$GPRMC,051651.000,V,3603.1673,N,14007.2508,E,0.00,108.78,030610,,,N*7A
$GPRMC,051652.000,V,3603.1673,N,14007.2508,E,0.00,108.78,030610,,,N*79
$GPRMC,051653.000,V,3603.1673,N,14007.2508,E,0.00,108.78,030610,,,N*78
$GPRMC,051654.000,V,3603.1673,N,14007.2508,E,0.00,108.78,030610,,,N*7F
$GPRMC,051655.000,V,3603.1673,N,14007.2508,E,0.00,108.78,030610,,,N*7E
$PSEN,Batt,V,3.74
$PSEN,CO2,ppm, 0432
$GPRMC,051656.000,V,3603.1673,N,14007.2508,E,0.00,108.78,030610,,,N*7D
$GPRMC,051657.000,V,3603.1673,N,14007.2508,E,0.00,108.78,030610,,,N*7C
$GPRMC,051658.000,V,3603.1673,N,14007.2508,E,0.00,108.78,030610,,,N*73
$GPRMC,051659.000,V,3603.1673,N,14007.2508,E,0.00,108.78,030610,,,N*72
$GPRMC,051700.000,V,3603.1673,N,14007.2508,E,0.00,108.78,030610,,,N*7F
$PSEN,Batt,V,3.72
$PSEN,CO2,ppm, 0439
$GPRMC,051701.000,V,3603.1673,N,14007.2508,E,0.00,108.78,030610,,,N*7E
$GPRMC,051702.000,V,3603.1673,N,14007.2508,E,0.00,108.78,030610,,,N*7D
$GPRMC,051703.000,V,3603.1673,N,14007.2508,E,0.00,108.78,030610,,,N*7C
$GPRMC,051704.000,V,3603.1673,N,14007.2508,E,0.00,108.78,030610,,,N*7B
$GPRMC,051705.000,V,3603.1673,N,14007.2508,E,0.00,108.78,030610,,,N*7A
$PSEN,Batt,V,3.73
$PSEN,CO2,ppm, 0438
$GPRMC,051706.000,V,3603.1673,N,14007.2508,E,0.00,108.78,030610,,,N*79
$GPRMC,051707.000,V,3603.1673,N,14007.2508,E,0.00,108.78,030610,,,N*78
$GPRMC,051708.000,V,3603.1673,N,14007.2508,E,0.00,108.78,030610,,,N*77
$GPRMC,051709.000,V,3603.1673,N,14007.2508,E,0.00,108.78,030610,,,N*76
$GPRMC,051710.000,V,3603.1673,N,14007.2508,E,0.00,108.78,030610,,,N*7E
$PSEN,Batt,V,3.73
$PSEN,CO2,ppm, 0442
$GPRMC,051711.000,V,3603.1673,N,14007.2508,E,0.00,108.78,030610,,,N*7F
$GPRMC,051712.000,V,3603.1673,N,14007.2508,E,0.00,108.78,030610,,,N*7C
$GPRMC,051713.000,V,3603.1673,N,14007.2508,E,0.00,108.78,030610,,,N*7D
$GPRMC,051714.000,V,3603.1673,N,14007.2508,E,0.00,108.78,030610,,,N*7A
$GPRMC,051715.000,V,3603.1673,N,14007.2508,E,0.00,108.78,030610,,,N*7B
$PSEN,Batt,V,3.72
$PSEN,CO2,ppm, 0442
$GPRMC,051716.000,V,3603.1673,N,14007.2508,E,0.00,108.78,030610,,,N*78
$GPRMC,051717.000,V,3603.1673,N,14007.2508,E,0.00,108.78,030610,,,N*79
$GPRMC,051718.000,V,3603.1673,N,14007.2508,E,0.00,108.78,030610,,,N*76
$GPRMC,051719.000,V,3603.1673,N,14007.2508,E,0.00,108.78,030610,,,N*77
$PSEN,Batt,V,3.73
$GPRMC,051720.000,V,3603.1673,N,14007.2508,E,0.00,108.78,030610,,,N*7D
$PSEN,CO2,ppm, 0441
$GPRMC,051721.000,V,3603.1673,N,14007.2508,E,0.00,108.78,030610,,,N*7C
$GPRMC,051722.000,V,3603.1673,N,14007.2508,E,0.00,108.78,030610,,,N*7F
$GPRMC,051723.000,V,3603.1673,N,14007.2508,E,0.00,108.78,030610,,,N*7E
$GPRMC,051724.000,V,3603.1673,N,14007.2508,E,0.00,108.78,030610,,,N*79
$PSEN,Batt,V,3.73
$PSEN,CO2,ppm, 0437
$GPRMC,051725.000,V,3603.1673,N,14007.2508,E,0.00,108.78,030610,,,N*78
$GPRMC,051726.000,V,3603.1673,N,14007.2508,E,0.00,108.78,030610,,,N*7B
$GPRMC,051727.000,V,3603.1673,N,14007.2508,E,0.00,108.78,030610,,,N*7A
$GPRMC,051728.000,V,3603.1673,N,14007.2508,E,0.00,108.78,030610,,,N*75
$GPRMC,051729.000,V,3603.1673,N,14007.2508,E,0.00,108.78,030610,,,N*74
$PSEN,Batt,V,3.71
$PSEN,CO2,ppm, 0441
$GPRMC,051730.000,V,3603.1673,N,14007.2508,E,0.00,108.78,030610,,,N*7C
$GPRMC,051731.000,V,3603.1673,N,14007.2508,E,0.00,108.78,030610,,,N*7D
$GPRMC,051732.000,V,3603.1673,N,14007.2508,E,0.00,108.78,030610,,,N*7E
$GPRMC,051733.000,V,3603.1673,N,14007.2508,E,0.00,108.78,030610,,,N*7F
$GPRMC,051734.000,V,3603.1673,N,14007.2508,E,0.00,108.78,030610,,,N*78
$PSEN,Batt,V,3.74
$PSEN,CO2,ppm, 0445
$GPRMC,051735.000,V,3603.1673,N,14007.2508,E,0.00,108.78,030610,,,N*79
$GPRMC,051736.000,V,3603.1673,N,14007.2508,E,0.00,108.78,030610,,,N*7A
$GPRMC,051737.000,V,3603.1673,N,14007.2508,E,0.00,108.78,030610,,,N*7B
$GPRMC,051738.000,V,3603.1673,N,14007.2508,E,0.00,108.78,030610,,,N*74
$GPRMC,051739.000,V,3603.1673,N,14007.2508,E,0.00,108.78,030610,,,N*75
$PSEN,Batt,V,3.72
$PSEN,CO2,ppm, 0450
$GPRMC,051740.000,V,3603.1673,N,14007.2508,E,0.00,108.78,030610,,,N*7B
$GPRMC,051741.000,V,3603.1673,N,14007.2508,E,0.00,108.78,030610,,,N*7A
$GPRMC,051742.000,V,3603.1673,N,14007.2508,E,0.00,108.78,030610,,,N*79
$GPRMC,051743.000,V,3603.1673,N,14007.2508,E,0.00,108.78,030610,,,N*78
$GPRMC,051744.000,V,3602.9802,N,14007.0931,E,2.65,211.84,030610,,,N*73
$PSEN,Batt,V,3.73
$PSEN,CO2,ppm, 0454
$GPRMC,051745.000,V,3602.9756,N,14007.0897,E,0.12,211.84,030610,,,N*73
$GPRMC,051746.000,V,3602.9723,N,14007.0875,E,0.10,211.84,030610,,,N*7C
$GPRMC,051747.000,V,3602.9687,N,14007.0850,E,0.11,211.84,030610,,,N*74
$GPRMC,051748.000,V,3602.9661,N,14007.0832,E,0.11,211.84,030610,,,N*77
$GPRMC,051749.000,V,3602.9622,N,14007.0806,E,2.58,213.72,030610,,,N*72
$PSEN,Batt,V,3.73
$PSEN,CO2,ppm, 0473
$GPRMC,051750.000,V,3602.3282,N,14008.2195,E,0.00,213.72,030610,,,N*7F
$GPRMC,051751.000,V,3603.0441,N,14007.1175,E,0.02,213.72,030610,,,N*75
$GPRMC,051752.000,V,3603.0435,N,14007.1179,E,0.03,213.72,030610,,,N*78
$GPRMC,051753.000,V,3603.0430,N,14007.1181,E,0.03,213.72,030610,,,N*7B
$GPRMC,051754.000,V,3603.3687,N,14007.7843,E,43.17,60.55,030610,,,N*71
$PSEN,Batt,V,3.72
$PSEN,CO2,ppm, 0495
$GPRMC,051755.000,V,3603.3736,N,14007.7938,E,29.49,46.58,030610,,,N*78
$GPRMC,051756.000,V,3603.3798,N,14007.8024,E,25.96,51.81,030610,,,N*78
$GPRMC,051757.000,V,3603.3893,N,14007.8095,E,26.62,47.41,030610,,,N*74
$GPRMC,051758.000,V,3603.4011,N,14007.8158,E,26.76,46.72,030610,,,N*7A
$PSEN,Batt,V,3.73
$GPRMC,051759.000,V,3603.4148,N,14007.8214,E,27.07,47.65,030610,,,N*7D
$PSEN,CO2,ppm, 0506
$GPRMC,051800.000,V,3603.4505,N,14007.8162,E,36.18,38.06,030610,,,N*72
$GPRMC,051801.000,V,3603.4507,N,14007.8164,E,0.07,38.06,030610,,,N*4C
$GPRMC,051802.000,V,3603.4507,N,14007.8164,E,0.00,38.06,030610,,,N*48
$GPRMC,051803.000,V,3603.4507,N,14007.8164,E,0.00,38.06,030610,,,N*49
$PSEN,Batt,V,3.72
$GPRMC,051804.000,V,3603.4507,N,14007.8164,E,0.00,38.06,030610,,,N*4E
$PSEN,CO2,ppm, 0537
$GPRMC,051805.000,V,3603.4507,N,14007.8164,E,0.00,38.06,030610,,,N*4F
$GPRMC,051806.000,V,3603.4507,N,14007.8164,E,0.00,38.06,030610,,,N*4C
$GPRMC,051807.000,V,3603.4507,N,14007.8164,E,0.00,38.06,030610,,,N*4D
$GPRMC,051808.000,V,3603.4507,N,14007.8164,E,0.00,38.06,030610,,,N*42
$PSEN,Batt,V,3.70
$PSEN,CO2,ppm, 0578
$GPRMC,051809.000,V,3603.4507,N,14007.8164,E,0.00,38.06,030610,,,N*43
$GPRMC,051810.000,V,3603.4507,N,14007.8164,E,0.00,38.06,030610,,,N*4B
$GPRMC,051811.000,V,3603.4507,N,14007.8164,E,0.00,38.06,030610,,,N*4A
$GPRMC,051812.000,V,3603.4507,N,14007.8164,E,0.00,38.06,030610,,,N*49
$GPRMC,051813.000,V,3603.4507,N,14007.8164,E,0.00,38.06,030610,,,N*48
$PSEN,Batt,V,3.72
$PSEN,CO2,ppm, 0603
$GPRMC,051814.000,V,3603.4507,N,14007.8164,E,0.00,38.06,030610,,,N*4F
$GPRMC,051815.000,V,3603.4507,N,14007.8164,E,0.00,38.06,030610,,,N*4E
$GPRMC,051816.000,V,3603.4507,N,14007.8164,E,0.00,38.06,030610,,,N*4D
$GPRMC,051817.000,V,3603.4507,N,14007.8164,E,0.00,38.06,030610,,,N*4C
$GPRMC,051818.000,V,3603.4507,N,14007.8164,E,0.00,38.06,030610,,,N*43
$PSEN,Batt,V,3.70
$PSEN,CO2,ppm, 0635
$GPRMC,051819.000,V,3603.4507,N,14007.8164,E,0.00,38.06,030610,,,N*42
$GPRMC,051820.000,V,3603.4507,N,14007.8164,E,0.00,38.06,030610,,,N*48
$GPRMC,051821.000,V,3603.4507,N,14007.8164,E,0.00,38.06,030610,,,N*49
$GPRMC,051822.000,V,3603.4507,N,14007.8164,E,0.00,38.06,030610,,,N*4A
$GPRMC,051823.000,V,3603.4507,N,14007.8164,E,0.00,38.06,030610,,,N*4B
$PSEN,Batt,V,3.72
$PSEN,CO2,ppm, 0653
$GPRMC,051824.000,V,3603.4507,N,14007.8164,E,0.00,38.06,030610,,,N*4C
